{
  "errorcode": "0",
  "errormessage": "",
  "numberofresults": 1042,
  "timestamp": "03/01/2019 22:25:46",
  "results": [
    {
      "stopid": "1000",
      "displaystopid": "1000",
      "shortname": "",
      "shortnamelocalized": "",
      "fullname": "Oscar Traynor Rd, Beechpark Avenue",
      "fullnamelocalized": "",
      "latitude": "53.39098306",
      "longitude": "-6.201808056",
      "lastupdated": "",
      "operators": [
        {
          "name": "gad",
          "routes": [
            "17A"
          ]
        }
      ]
    },
    {
      "stopid": "1001",
      "displaystopid": "1001",
      "shortname": "",
      "shortnamelocalized": "",
      "fullname": "Oscar Traynor Rd, Brookville Cresent",
      "fullnamelocalized": "",
      "latitude": "53.39008111",
      "longitude": "-6.199215",
      "lastupdated": "",
      "operators": [
        {
          "name": "gad",
          "routes": [
            "17A"
          ]
        }
      ]
    },
    {
      "stopid": "1002",
      "displaystopid": "1002",
      "shortname": "",
      "shortnamelocalized": "",
      "fullname": "Tonlegee Rd, Tonlegee Road",
      "fullnamelocalized": "",
      "latitude": "53.38917556",
      "longitude": "-6.195193611",
      "lastupdated": "",
      "operators": [
        {
          "name": "gad",
          "routes": [
            "17A"
          ]
        }
      ]
    },
    {
      "stopid": "1003",
      "displaystopid": "1003",
      "shortname": "",
      "shortnamelocalized": "",
      "fullname": "Tonlegee Rd, St John\u0027s Church",
      "fullnamelocalized": "",
      "latitude": "53.39029944",
      "longitude": "-6.191071389",
      "lastupdated": "",
      "operators": [
        {
          "name": "gad",
          "routes": [
            "17A"
          ]
        }
      ]
    },
    {
      "stopid": "1004",
      "displaystopid": "1004",
      "shortname": "",
      "shortnamelocalized": "",
      "fullname": "Tonlegee Rd, Rathvale",
      "fullnamelocalized": "",
      "latitude": "53.39063806",
      "longitude": "-6.186140556",
      "lastupdated": "",
      "operators": [
        {
          "name": "gad",
          "routes": [
            "17A"
          ]
        }
      ]
    },
    {
      "stopid": "1005",
      "displaystopid": "1005",
      "shortname": "",
      "shortnamelocalized": "",
      "fullname": "Limewood Park, Tonlegee Rd",
      "fullnamelocalized": "",
      "latitude": "53.391",
      "longitude": "-6.181927",
      "lastupdated": "",
      "operators": [
        {
          "name": "gad",
          "routes": [
            "17A"
          ]
        }
      ]
    },
    {
      "stopid": "1006",
      "displaystopid": "1006",
      "shortname": "",
      "shortnamelocalized": "",
      "fullname": "Tonlegee Rd, Millwood Villas",
      "fullnamelocalized": "",
      "latitude": "53.39117028",
      "longitude": "-6.176825556",
      "lastupdated": "",
      "operators": [
        {
          "name": "gad",
          "routes": [
            "17A"
          ]
        }
      ]
    },
    {
      "stopid": "1007",
      "displaystopid": "1007",
      "shortname": "",
      "shortnamelocalized": "",
      "fullname": "Tonlegee Rd, Millbrook Drive",
      "fullnamelocalized": "",
      "latitude": "53.39124639",
      "longitude": "-6.172386667",
      "lastupdated": "",
      "operators": [
        {
          "name": "gad",
          "routes": [
            "17A"
          ]
        }
      ]
    },
    {
      "stopid": "1008",
      "displaystopid": "1008",
      "shortname": "",
      "shortnamelocalized": "",
      "fullname": "Kilbarrack Road",
      "fullnamelocalized": "",
      "latitude": "53.39112667",
      "longitude": "-6.166933889",
      "lastupdated": "",
      "operators": [
        {
          "name": "gad",
          "routes": [
            "17A"
          ]
        }
      ]
    },
    {
      "stopid": "1009",
      "displaystopid": "1009",
      "shortname": "",
      "shortnamelocalized": "",
      "fullname": "Kilbarrack Road, St. Donagh\u0027s",
      "fullnamelocalized": "",
      "latitude": "53.39108917",
      "longitude": "-6.164484444",
      "lastupdated": "",
      "operators": [
        {
          "name": "gad",
          "routes": [
            "17A"
          ]
        }
      ]
    },
    {
      "stopid": "10091",
      "displaystopid": "10091",
      "shortname": "",
      "shortnamelocalized": "",
      "fullname": "Taney Grove",
      "fullnamelocalized": "",
      "latitude": "53.29253167",
      "longitude": "-6.231013333",
      "lastupdated": "",
      "operators": [
        {
          "name": "gad",
          "routes": [
            "175"
          ]
        }
      ]
    },
    {
      "stopid": "10092",
      "displaystopid": "10092",
      "shortname": "",
      "shortnamelocalized": "",
      "fullname": "Mount Anville Schoo, Mount Anville School",
      "fullnamelocalized": "",
      "latitude": "53.29432861",
      "longitude": "-6.221893056",
      "lastupdated": "",
      "operators": [
        {
          "name": "gad",
          "routes": [
            "175"
          ]
        }
      ]
    },
    {
      "stopid": "10093",
      "displaystopid": "10093",
      "shortname": "",
      "shortnamelocalized": "",
      "fullname": "Deerpark Road",
      "fullnamelocalized": "",
      "latitude": "53.29663083",
      "longitude": "-6.220177222",
      "lastupdated": "",
      "operators": [
        {
          "name": "gad",
          "routes": [
            "175"
          ]
        }
      ]
    },
    {
      "stopid": "10096",
      "displaystopid": "10096",
      "shortname": "",
      "shortnamelocalized": "",
      "fullname": "Deerpark Road",
      "fullnamelocalized": "",
      "latitude": "53.29579944",
      "longitude": "-6.219866667",
      "lastupdated": "",
      "operators": [
        {
          "name": "gad",
          "routes": [
            "175"
          ]
        }
      ]
    },
    {
      "stopid": "10097",
      "displaystopid": "10097",
      "shortname": "",
      "shortnamelocalized": "",
      "fullname": "Mount Anville Schoo, Mount Anville School",
      "fullnamelocalized": "",
      "latitude": "53.29320833",
      "longitude": "-6.22452",
      "lastupdated": "",
      "operators": [
        {
          "name": "gad",
          "routes": [
            "175"
          ]
        }
      ]
    },
    {
      "stopid": "10098",
      "displaystopid": "10098",
      "shortname": "",
      "shortnamelocalized": "",
      "fullname": "Taney Road",
      "fullnamelocalized": "",
      "latitude": "53.29226778",
      "longitude": "-6.231399444",
      "lastupdated": "",
      "operators": [
        {
          "name": "gad",
          "routes": [
            "175"
          ]
        }
      ]
    },
    {
      "stopid": "1010",
      "displaystopid": "1010",
      "shortname": "",
      "shortnamelocalized": "",
      "fullname": "Kilbarrack Road, Howth Junction",
      "fullnamelocalized": "",
      "latitude": "53.39059",
      "longitude": "-6.158341389",
      "lastupdated": "",
      "operators": [
        {
          "name": "gad",
          "routes": [
            "17A"
          ]
        }
      ]
    },
    {
      "stopid": "10103",
      "displaystopid": "10103",
      "shortname": "",
      "shortnamelocalized": "",
      "fullname": "Wyckham Way",
      "fullnamelocalized": "",
      "latitude": "53.28285611",
      "longitude": "-6.242886389",
      "lastupdated": "",
      "operators": [
        {
          "name": "gad",
          "routes": [
            "175"
          ]
        }
      ]
    },
    {
      "stopid": "10104",
      "displaystopid": "10104",
      "shortname": "",
      "shortnamelocalized": "",
      "fullname": "Ballintyre Grove",
      "fullnamelocalized": "",
      "latitude": "53.27427083",
      "longitude": "-6.257483611",
      "lastupdated": "",
      "operators": [
        {
          "name": "gad",
          "routes": [
            "175"
          ]
        }
      ]
    },
    {
      "stopid": "10105",
      "displaystopid": "10105",
      "shortname": "",
      "shortnamelocalized": "",
      "fullname": "Scholarstown Park",
      "fullnamelocalized": "",
      "latitude": "53.27927667",
      "longitude": "-6.309872222",
      "lastupdated": "",
      "operators": [
        {
          "name": "gad",
          "routes": [
            "175"
          ]
        }
      ]
    },
    {
      "stopid": "10106",
      "displaystopid": "10106",
      "shortname": "",
      "shortnamelocalized": "",
      "fullname": "St Colmcilles Schoo, St Colmcilles School",
      "fullnamelocalized": "",
      "latitude": "53.27937389",
      "longitude": "-6.3142175",
      "lastupdated": "",
      "operators": [
        {
          "name": "gad",
          "routes": [
            "175"
          ]
        }
      ]
    },
    {
      "stopid": "10107",
      "displaystopid": "10107",
      "shortname": "",
      "shortnamelocalized": "",
      "fullname": "Tallaght Leisure Ct, Tallaght Leisure Ctr",
      "fullnamelocalized": "",
      "latitude": "53.28237333",
      "longitude": "-6.39411",
      "lastupdated": "",
      "operators": [
        {
          "name": "gad",
          "routes": [
            "175"
          ]
        }
      ]
    },
    {
      "stopid": "10108",
      "displaystopid": "10108",
      "shortname": "",
      "shortnamelocalized": "",
      "fullname": "Glenshane Drive",
      "fullnamelocalized": "",
      "latitude": "53.28317361",
      "longitude": "-6.400154167",
      "lastupdated": "",
      "operators": [
        {
          "name": "gad",
          "routes": [
            "175"
          ]
        }
      ]
    },
    {
      "stopid": "10109",
      "displaystopid": "10109",
      "shortname": "",
      "shortnamelocalized": "",
      "fullname": "Brookview Avenue",
      "fullnamelocalized": "",
      "latitude": "53.28569889",
      "longitude": "-6.410198611",
      "lastupdated": "",
      "operators": [
        {
          "name": "gad",
          "routes": [
            "175"
          ]
        }
      ]
    },
    {
      "stopid": "10110",
      "displaystopid": "10110",
      "shortname": "",
      "shortnamelocalized": "",
      "fullname": "Ard Mor Drive",
      "fullnamelocalized": "",
      "latitude": "53.28442944",
      "longitude": "-6.420189444",
      "lastupdated": "",
      "operators": [
        {
          "name": "gad",
          "routes": [
            "175"
          ]
        }
      ]
    },
    {
      "stopid": "1012",
      "displaystopid": "1012",
      "shortname": "",
      "shortnamelocalized": "",
      "fullname": "Kilbarrack Pde, Naomh Barr?g GAA",
      "fullnamelocalized": "",
      "latitude": "53.39029528",
      "longitude": "-6.152640556",
      "lastupdated": "",
      "operators": [
        {
          "name": "gad",
          "routes": [
            "17A"
          ]
        }
      ]
    },
    {
      "stopid": "10150",
      "displaystopid": "10150",
      "shortname": "",
      "shortnamelocalized": "",
      "fullname": "Ard Mor Drive",
      "fullnamelocalized": "",
      "latitude": "53.28532306",
      "longitude": "-6.417756667",
      "lastupdated": "",
      "operators": [
        {
          "name": "gad",
          "routes": [
            "175"
          ]
        }
      ]
    },
    {
      "stopid": "10151",
      "displaystopid": "10151",
      "shortname": "",
      "shortnamelocalized": "",
      "fullname": "Brookview Avenue",
      "fullnamelocalized": "",
      "latitude": "53.28580139",
      "longitude": "-6.409805",
      "lastupdated": "",
      "operators": [
        {
          "name": "gad",
          "routes": [
            "175"
          ]
        }
      ]
    },
    {
      "stopid": "10152",
      "displaystopid": "10152",
      "shortname": "",
      "shortnamelocalized": "",
      "fullname": "Glenshane Drive",
      "fullnamelocalized": "",
      "latitude": "53.28297639",
      "longitude": "-6.398181667",
      "lastupdated": "",
      "operators": [
        {
          "name": "gad",
          "routes": [
            "175"
          ]
        }
      ]
    },
    {
      "stopid": "10153",
      "displaystopid": "10153",
      "shortname": "",
      "shortnamelocalized": "",
      "fullname": "Tallaght Leisure Ct, Tallaght Leisure Ctr",
      "fullnamelocalized": "",
      "latitude": "53.28252944",
      "longitude": "-6.393699167",
      "lastupdated": "",
      "operators": [
        {
          "name": "gad",
          "routes": [
            "175"
          ]
        }
      ]
    },
    {
      "stopid": "10154",
      "displaystopid": "10154",
      "shortname": "",
      "shortnamelocalized": "",
      "fullname": "Scholarstown Park",
      "fullnamelocalized": "",
      "latitude": "53.27937778",
      "longitude": "-6.310033333",
      "lastupdated": "",
      "operators": [
        {
          "name": "gad",
          "routes": [
            "175"
          ]
        }
      ]
    },
    {
      "stopid": "10155",
      "displaystopid": "10155",
      "shortname": "",
      "shortnamelocalized": "",
      "fullname": "Ballintyre Grove",
      "fullnamelocalized": "",
      "latitude": "53.27431778",
      "longitude": "-6.256387222",
      "lastupdated": "",
      "operators": [
        {
          "name": "gad",
          "routes": [
            "175"
          ]
        }
      ]
    },
    {
      "stopid": "10156",
      "displaystopid": "10156",
      "shortname": "",
      "shortnamelocalized": "",
      "fullname": "Wyckham Way",
      "fullnamelocalized": "",
      "latitude": "53.28293167",
      "longitude": "-6.243123333",
      "lastupdated": "",
      "operators": [
        {
          "name": "gad",
          "routes": [
            "175"
          ]
        }
      ]
    },
    {
      "stopid": "10157",
      "displaystopid": "10157",
      "shortname": "",
      "shortnamelocalized": "",
      "fullname": "Taney Park",
      "fullnamelocalized": "",
      "latitude": "53.29209028",
      "longitude": "-6.2424925",
      "lastupdated": "",
      "operators": [
        {
          "name": "gad",
          "routes": [
            "75",
            "75A",
            "175"
          ]
        }
      ]
    },
    {
      "stopid": "10158",
      "displaystopid": "10158",
      "shortname": "",
      "shortnamelocalized": "",
      "fullname": "Taney Crescent",
      "fullnamelocalized": "",
      "latitude": "53.29160639",
      "longitude": "-6.236511944",
      "lastupdated": "",
      "operators": [
        {
          "name": "gad",
          "routes": [
            "175"
          ]
        }
      ]
    },
    {
      "stopid": "10159",
      "displaystopid": "10159",
      "shortname": "",
      "shortnamelocalized": "",
      "fullname": "Stoney Road",
      "fullnamelocalized": "",
      "latitude": "53.29153194",
      "longitude": "-6.236935",
      "lastupdated": "",
      "operators": [
        {
          "name": "gad",
          "routes": [
            "175"
          ]
        }
      ]
    },
    {
      "stopid": "10160",
      "displaystopid": "10160",
      "shortname": "",
      "shortnamelocalized": "",
      "fullname": "Taney Park",
      "fullnamelocalized": "",
      "latitude": "53.29207028",
      "longitude": "-6.242958333",
      "lastupdated": "",
      "operators": [
        {
          "name": "gad",
          "routes": [
            "75",
            "75A",
            "175"
          ]
        }
      ]
    },
    {
      "stopid": "10161",
      "displaystopid": "10161",
      "shortname": "",
      "shortnamelocalized": "",
      "fullname": "Sydenham Road",
      "fullnamelocalized": "",
      "latitude": "53.29006917",
      "longitude": "-6.239530278",
      "lastupdated": "",
      "operators": [
        {
          "name": "gad",
          "routes": [
            "75",
            "75A"
          ]
        }
      ]
    },
    {
      "stopid": "10162",
      "displaystopid": "10162",
      "shortname": "",
      "shortnamelocalized": "",
      "fullname": "Sydenham Road",
      "fullnamelocalized": "",
      "latitude": "53.28988917",
      "longitude": "-6.239507778",
      "lastupdated": "",
      "operators": [
        {
          "name": "gad",
          "routes": [
            "75",
            "75A"
          ]
        }
      ]
    },
    {
      "stopid": "1039",
      "displaystopid": "1039",
      "shortname": "",
      "shortnamelocalized": "",
      "fullname": "Malahide Road, Seamount View",
      "fullnamelocalized": "",
      "latitude": "53.45353889",
      "longitude": "-6.205309722",
      "lastupdated": "",
      "operators": [
        {
          "name": "gad",
          "routes": [
            "102"
          ]
        }
      ]
    },
    {
      "stopid": "1040",
      "displaystopid": "1040",
      "shortname": "",
      "shortnamelocalized": "",
      "fullname": "Malahide Road, Ashley Drive",
      "fullnamelocalized": "",
      "latitude": "53.45403583",
      "longitude": "-6.212064722",
      "lastupdated": "",
      "operators": [
        {
          "name": "gad",
          "routes": [
            "102"
          ]
        }
      ]
    },
    {
      "stopid": "1041",
      "displaystopid": "1041",
      "shortname": "",
      "shortnamelocalized": "",
      "fullname": "Malahide Road, Swords Road",
      "fullnamelocalized": "",
      "latitude": "53.45405806",
      "longitude": "-6.211762778",
      "lastupdated": "",
      "operators": [
        {
          "name": "gad",
          "routes": [
            "102"
          ]
        }
      ]
    },
    {
      "stopid": "1050",
      "displaystopid": "1050",
      "shortname": "",
      "shortnamelocalized": "",
      "fullname": "Malahide Road, Seamount View",
      "fullnamelocalized": "",
      "latitude": "53.45366917",
      "longitude": "-6.2062075",
      "lastupdated": "",
      "operators": [
        {
          "name": "gad",
          "routes": [
            "102"
          ]
        }
      ]
    },
    {
      "stopid": "1073",
      "displaystopid": "1073",
      "shortname": "",
      "shortnamelocalized": "",
      "fullname": "Seabury Road, Malahide Road",
      "fullnamelocalized": "",
      "latitude": "53.450775",
      "longitude": "-6.187407",
      "lastupdated": "",
      "operators": [
        {
          "name": "gad",
          "routes": [
            "102"
          ]
        }
      ]
    },
    {
      "stopid": "112",
      "displaystopid": "112",
      "shortname": "",
      "shortnamelocalized": "",
      "fullname": "Civic Centre, Ballymun Road",
      "fullnamelocalized": "",
      "latitude": "53.396144",
      "longitude": "-6.263974",
      "lastupdated": "",
      "operators": [
        {
          "name": "gad",
          "routes": [
            "17A"
          ]
        }
      ]
    },
    {
      "stopid": "113",
      "displaystopid": "113",
      "shortname": "",
      "shortnamelocalized": "",
      "fullname": "Comprehensive School, Ballymun Road",
      "fullnamelocalized": "",
      "latitude": "53.392269",
      "longitude": "-6.263688",
      "lastupdated": "",
      "operators": [
        {
          "name": "gad",
          "routes": [
            "17A"
          ]
        }
      ]
    },
    {
      "stopid": "1131",
      "displaystopid": "1131",
      "shortname": "",
      "shortnamelocalized": "",
      "fullname": "Butterfield Ave, Old Bridge Road",
      "fullnamelocalized": "",
      "latitude": "53.2942225",
      "longitude": "-6.307872222",
      "lastupdated": "",
      "operators": [
        {
          "name": "gad",
          "routes": [
            "75",
            "75A"
          ]
        }
      ]
    },
    {
      "stopid": "1132",
      "displaystopid": "1132",
      "shortname": "",
      "shortnamelocalized": "",
      "fullname": "Butterfield Ave, Anne Devlin Road",
      "fullnamelocalized": "",
      "latitude": "53.29435",
      "longitude": "-6.304836667",
      "lastupdated": "",
      "operators": [
        {
          "name": "gad",
          "routes": [
            "75",
            "75A"
          ]
        }
      ]
    },
    {
      "stopid": "1133",
      "displaystopid": "1133",
      "shortname": "",
      "shortnamelocalized": "",
      "fullname": "Butterfield Ave, Butterfield Grove",
      "fullnamelocalized": "",
      "latitude": "53.29470472",
      "longitude": "-6.301342222",
      "lastupdated": "",
      "operators": [
        {
          "name": "gad",
          "routes": [
            "75",
            "75A"
          ]
        }
      ]
    },
    {
      "stopid": "1134",
      "displaystopid": "1134",
      "shortname": "",
      "shortnamelocalized": "",
      "fullname": "Butterfield Ave, Rathfarnham SC",
      "fullnamelocalized": "",
      "latitude": "53.29550722",
      "longitude": "-6.29837",
      "lastupdated": "",
      "operators": [
        {
          "name": "gad",
          "routes": [
            "75",
            "75A"
          ]
        }
      ]
    },
    {
      "stopid": "1138",
      "displaystopid": "1138",
      "shortname": "",
      "shortnamelocalized": "",
      "fullname": "Butterfield Ave, Butterfield Grove",
      "fullnamelocalized": "",
      "latitude": "53.29483444",
      "longitude": "-6.300346944",
      "lastupdated": "",
      "operators": [
        {
          "name": "gad",
          "routes": [
            "75",
            "75A"
          ]
        }
      ]
    },
    {
      "stopid": "1139",
      "displaystopid": "1139",
      "shortname": "",
      "shortnamelocalized": "",
      "fullname": "Butterfield Ave, Old Bridge Road",
      "fullnamelocalized": "",
      "latitude": "53.29422444",
      "longitude": "-6.306746944",
      "lastupdated": "",
      "operators": [
        {
          "name": "gad",
          "routes": [
            "75",
            "75A"
          ]
        }
      ]
    },
    {
      "stopid": "1140",
      "displaystopid": "1140",
      "shortname": "",
      "shortnamelocalized": "",
      "fullname": "Ballyroan Road, Firhouse Rd",
      "fullnamelocalized": "",
      "latitude": "53.293289",
      "longitude": "-6.309633",
      "lastupdated": "",
      "operators": [
        {
          "name": "gad",
          "routes": [
            "75",
            "75A"
          ]
        }
      ]
    },
    {
      "stopid": "1149",
      "displaystopid": "1149",
      "shortname": "",
      "shortnamelocalized": "",
      "fullname": "Scholarstown Road, St Colmcilles School",
      "fullnamelocalized": "",
      "latitude": "53.27933833",
      "longitude": "-6.315508611",
      "lastupdated": "",
      "operators": [
        {
          "name": "gad",
          "routes": [
            "175"
          ]
        }
      ]
    },
    {
      "stopid": "1228",
      "displaystopid": "1228",
      "shortname": "",
      "shortnamelocalized": "",
      "fullname": "Castlekevin Road, Kilbarron Rd",
      "fullnamelocalized": "",
      "latitude": "53.3923",
      "longitude": "-6.217584",
      "lastupdated": "",
      "operators": [
        {
          "name": "gad",
          "routes": [
            "17A"
          ]
        }
      ]
    },
    {
      "stopid": "1229",
      "displaystopid": "1229",
      "shortname": "",
      "shortnamelocalized": "",
      "fullname": "Dundaniel Road, Kilbarron Rd",
      "fullnamelocalized": "",
      "latitude": "53.394341",
      "longitude": "-6.225496",
      "lastupdated": "",
      "operators": [
        {
          "name": "gad",
          "routes": [
            "17A"
          ]
        }
      ]
    },
    {
      "stopid": "1235",
      "displaystopid": "1235",
      "shortname": "",
      "shortnamelocalized": "",
      "fullname": "Kilbarron Road, Dundaniel Road",
      "fullnamelocalized": "",
      "latitude": "53.39473",
      "longitude": "-6.225585",
      "lastupdated": "",
      "operators": [
        {
          "name": "gad",
          "routes": [
            "17A"
          ]
        }
      ]
    },
    {
      "stopid": "1237",
      "displaystopid": "1237",
      "shortname": "",
      "shortnamelocalized": "",
      "fullname": "Cromcastle Ave, Kilbarron Rd",
      "fullnamelocalized": "",
      "latitude": "53.392657",
      "longitude": "-6.219059",
      "lastupdated": "",
      "operators": [
        {
          "name": "gad",
          "routes": [
            "17A"
          ]
        }
      ]
    },
    {
      "stopid": "1244",
      "displaystopid": "1244",
      "shortname": "",
      "shortnamelocalized": "",
      "fullname": "Cromcastle Green, Kilbarron Rd",
      "fullnamelocalized": "",
      "latitude": "53.392906",
      "longitude": "-6.220437",
      "lastupdated": "",
      "operators": [
        {
          "name": "gad",
          "routes": [
            "17A"
          ]
        }
      ]
    },
    {
      "stopid": "1246",
      "displaystopid": "1246",
      "shortname": "",
      "shortnamelocalized": "",
      "fullname": "Kilbarron Park, Kilbarron Rd",
      "fullnamelocalized": "",
      "latitude": "53.393491",
      "longitude": "-6.222963",
      "lastupdated": "",
      "operators": [
        {
          "name": "gad",
          "routes": [
            "17A"
          ]
        }
      ]
    },
    {
      "stopid": "1251",
      "displaystopid": "1251",
      "shortname": "",
      "shortnamelocalized": "",
      "fullname": "St. Luke\u0027s Church, Kilbarron Rd",
      "fullnamelocalized": "",
      "latitude": "53.393451",
      "longitude": "-6.222367",
      "lastupdated": "",
      "operators": [
        {
          "name": "gad",
          "routes": [
            "17A"
          ]
        }
      ]
    },
    {
      "stopid": "1252",
      "displaystopid": "1252",
      "shortname": "",
      "shortnamelocalized": "",
      "fullname": "Kilmore Rd, Kilmore Road",
      "fullnamelocalized": "",
      "latitude": "53.39363806",
      "longitude": "-6.214612778",
      "lastupdated": "",
      "operators": [
        {
          "name": "gad",
          "routes": [
            "17A"
          ]
        }
      ]
    },
    {
      "stopid": "1253",
      "displaystopid": "1253",
      "shortname": "",
      "shortnamelocalized": "",
      "fullname": "Kilmore Rd",
      "fullnamelocalized": "",
      "latitude": "53.39386389",
      "longitude": "-6.214693611",
      "lastupdated": "",
      "operators": [
        {
          "name": "gad",
          "routes": [
            "17A"
          ]
        }
      ]
    },
    {
      "stopid": "126",
      "displaystopid": "126",
      "shortname": "",
      "shortnamelocalized": "",
      "fullname": "Nursing Home, Ballymun Road",
      "fullnamelocalized": "",
      "latitude": "53.399092",
      "longitude": "-6.264086",
      "lastupdated": "",
      "operators": [
        {
          "name": "gad",
          "routes": [
            "17A"
          ]
        }
      ]
    },
    {
      "stopid": "127",
      "displaystopid": "127",
      "shortname": "",
      "shortnamelocalized": "",
      "fullname": "Nursing Home, Ballymun Road",
      "fullnamelocalized": "",
      "latitude": "53.399107",
      "longitude": "-6.263668",
      "lastupdated": "",
      "operators": [
        {
          "name": "gad",
          "routes": [
            "17A"
          ]
        }
      ]
    },
    {
      "stopid": "128",
      "displaystopid": "128",
      "shortname": "",
      "shortnamelocalized": "",
      "fullname": "Glasnevin Avenue",
      "fullnamelocalized": "",
      "latitude": "53.38926778",
      "longitude": "-6.265689722",
      "lastupdated": "",
      "operators": [
        {
          "name": "gad",
          "routes": [
            "17A"
          ]
        }
      ]
    },
    {
      "stopid": "1281",
      "displaystopid": "1281",
      "shortname": "",
      "shortnamelocalized": "",
      "fullname": "Grange Road, Nutgrove Ave",
      "fullnamelocalized": "",
      "latitude": "53.294239",
      "longitude": "-6.278255",
      "lastupdated": "",
      "operators": [
        {
          "name": "gad",
          "routes": [
            "75",
            "75A"
          ]
        }
      ]
    },
    {
      "stopid": "129",
      "displaystopid": "129",
      "shortname": "",
      "shortnamelocalized": "",
      "fullname": "Glasnevin Drive, Glasnevin Avenue",
      "fullnamelocalized": "",
      "latitude": "53.389888",
      "longitude": "-6.271413",
      "lastupdated": "",
      "operators": [
        {
          "name": "gad",
          "routes": [
            "17A"
          ]
        }
      ]
    },
    {
      "stopid": "130",
      "displaystopid": "130",
      "shortname": "",
      "shortnamelocalized": "",
      "fullname": "Glasnevin Drive, Glasnevin Avenue",
      "fullnamelocalized": "",
      "latitude": "53.390091",
      "longitude": "-6.27417",
      "lastupdated": "",
      "operators": [
        {
          "name": "gad",
          "routes": [
            "17A"
          ]
        }
      ]
    },
    {
      "stopid": "1305",
      "displaystopid": "1305",
      "shortname": "",
      "shortnamelocalized": "",
      "fullname": "Willbrook Road, Grange Road",
      "fullnamelocalized": "",
      "latitude": "53.296217",
      "longitude": "-6.283826",
      "lastupdated": "",
      "operators": [
        {
          "name": "gad",
          "routes": [
            "75",
            "75A"
          ]
        }
      ]
    },
    {
      "stopid": "1306",
      "displaystopid": "1306",
      "shortname": "",
      "shortnamelocalized": "",
      "fullname": "Rathfarnham Wood, Nutgrove Ave",
      "fullnamelocalized": "",
      "latitude": "53.294653",
      "longitude": "-6.279844",
      "lastupdated": "",
      "operators": [
        {
          "name": "gad",
          "routes": [
            "75",
            "75A"
          ]
        }
      ]
    },
    {
      "stopid": "1307",
      "displaystopid": "1307",
      "shortname": "",
      "shortnamelocalized": "",
      "fullname": "Stone Park Orchard, Nutgrove Ave",
      "fullnamelocalized": "",
      "latitude": "53.294205",
      "longitude": "-6.277631",
      "lastupdated": "",
      "operators": [
        {
          "name": "gad",
          "routes": [
            "75",
            "75A"
          ]
        }
      ]
    },
    {
      "stopid": "1308",
      "displaystopid": "1308",
      "shortname": "",
      "shortnamelocalized": "",
      "fullname": "Hockey Club, Nutgrove Ave",
      "fullnamelocalized": "",
      "latitude": "53.293613",
      "longitude": "-6.275152",
      "lastupdated": "",
      "operators": [
        {
          "name": "gad",
          "routes": [
            "75",
            "75A"
          ]
        }
      ]
    },
    {
      "stopid": "1309",
      "displaystopid": "1309",
      "shortname": "",
      "shortnamelocalized": "",
      "fullname": "Loreto Avenue, Nutgrove Ave",
      "fullnamelocalized": "",
      "latitude": "53.292463",
      "longitude": "-6.27172",
      "lastupdated": "",
      "operators": [
        {
          "name": "gad",
          "routes": [
            "75",
            "75A"
          ]
        }
      ]
    },
    {
      "stopid": "131",
      "displaystopid": "131",
      "shortname": "",
      "shortnamelocalized": "",
      "fullname": "Beneavin Drive, Glasnevin Avenue",
      "fullnamelocalized": "",
      "latitude": "53.390384",
      "longitude": "-6.278343",
      "lastupdated": "",
      "operators": [
        {
          "name": "gad",
          "routes": [
            "17A"
          ]
        }
      ]
    },
    {
      "stopid": "1317",
      "displaystopid": "1317",
      "shortname": "",
      "shortnamelocalized": "",
      "fullname": "Loreto Park, Nutgrove Ave",
      "fullnamelocalized": "",
      "latitude": "53.291973",
      "longitude": "-6.270056",
      "lastupdated": "",
      "operators": [
        {
          "name": "gad",
          "routes": [
            "75",
            "75A"
          ]
        }
      ]
    },
    {
      "stopid": "1318",
      "displaystopid": "1318",
      "shortname": "",
      "shortnamelocalized": "",
      "fullname": "Loreto Avenue, Nutgrove Ave",
      "fullnamelocalized": "",
      "latitude": "53.292532",
      "longitude": "-6.272289",
      "lastupdated": "",
      "operators": [
        {
          "name": "gad",
          "routes": [
            "75",
            "75A"
          ]
        }
      ]
    },
    {
      "stopid": "1319",
      "displaystopid": "1319",
      "shortname": "",
      "shortnamelocalized": "",
      "fullname": "Hockey Club, Nutgrove Ave",
      "fullnamelocalized": "",
      "latitude": "53.293663",
      "longitude": "-6.275604",
      "lastupdated": "",
      "operators": [
        {
          "name": "gad",
          "routes": [
            "75",
            "75A"
          ]
        }
      ]
    },
    {
      "stopid": "132",
      "displaystopid": "132",
      "shortname": "",
      "shortnamelocalized": "",
      "fullname": "Glasnevin Avenue, Beneavin Park",
      "fullnamelocalized": "",
      "latitude": "53.39052083",
      "longitude": "-6.282719167",
      "lastupdated": "",
      "operators": [
        {
          "name": "gad",
          "routes": [
            "17A"
          ]
        }
      ]
    },
    {
      "stopid": "1329",
      "displaystopid": "1329",
      "shortname": "",
      "shortnamelocalized": "",
      "fullname": "St. Mary\u0027s Boys School, Grange Road",
      "fullnamelocalized": "",
      "latitude": "53.295012",
      "longitude": "-6.28196",
      "lastupdated": "",
      "operators": [
        {
          "name": "gad",
          "routes": [
            "75",
            "75A"
          ]
        }
      ]
    },
    {
      "stopid": "1330",
      "displaystopid": "1330",
      "shortname": "",
      "shortnamelocalized": "",
      "fullname": "Willbrook Road, Grange Road",
      "fullnamelocalized": "",
      "latitude": "53.296188",
      "longitude": "-6.283981",
      "lastupdated": "",
      "operators": [
        {
          "name": "gad",
          "routes": [
            "75",
            "75A"
          ]
        }
      ]
    },
    {
      "stopid": "138",
      "displaystopid": "138",
      "shortname": "",
      "shortnamelocalized": "",
      "fullname": "St. Canice\u0027s School, Ballygall Road West",
      "fullnamelocalized": "",
      "latitude": "53.38992",
      "longitude": "-6.292333",
      "lastupdated": "",
      "operators": [
        {
          "name": "gad",
          "routes": [
            "17A"
          ]
        }
      ]
    },
    {
      "stopid": "139",
      "displaystopid": "139",
      "shortname": "",
      "shortnamelocalized": "",
      "fullname": "Glasnevin Avenue, Grove Park Road",
      "fullnamelocalized": "",
      "latitude": "53.39060139",
      "longitude": "-6.286459722",
      "lastupdated": "",
      "operators": [
        {
          "name": "gad",
          "routes": [
            "17A"
          ]
        }
      ]
    },
    {
      "stopid": "140",
      "displaystopid": "140",
      "shortname": "",
      "shortnamelocalized": "",
      "fullname": "Glasnevin Avenue, Beneavin Park",
      "fullnamelocalized": "",
      "latitude": "53.39063444",
      "longitude": "-6.282504167",
      "lastupdated": "",
      "operators": [
        {
          "name": "gad",
          "routes": [
            "17A"
          ]
        }
      ]
    },
    {
      "stopid": "141",
      "displaystopid": "141",
      "shortname": "",
      "shortnamelocalized": "",
      "fullname": "Willow Park Road, Glasnevin Avenue",
      "fullnamelocalized": "",
      "latitude": "53.390443",
      "longitude": "-6.278083",
      "lastupdated": "",
      "operators": [
        {
          "name": "gad",
          "routes": [
            "17A"
          ]
        }
      ]
    },
    {
      "stopid": "142",
      "displaystopid": "142",
      "shortname": "",
      "shortnamelocalized": "",
      "fullname": "Glasnevin Park, Glasnevin Avenue",
      "fullnamelocalized": "",
      "latitude": "53.390188",
      "longitude": "-6.274163",
      "lastupdated": "",
      "operators": [
        {
          "name": "gad",
          "routes": [
            "17A"
          ]
        }
      ]
    },
    {
      "stopid": "143",
      "displaystopid": "143",
      "shortname": "",
      "shortnamelocalized": "",
      "fullname": "Willow Park Avenue, Glasnevin Avenue",
      "fullnamelocalized": "",
      "latitude": "53.389871",
      "longitude": "-6.269241",
      "lastupdated": "",
      "operators": [
        {
          "name": "gad",
          "routes": [
            "17A"
          ]
        }
      ]
    },
    {
      "stopid": "1576",
      "displaystopid": "1576",
      "shortname": "",
      "shortnamelocalized": "",
      "fullname": "Cardiffsbridge Road, Cappagh Road",
      "fullnamelocalized": "",
      "latitude": "53.389315",
      "longitude": "-6.313024",
      "lastupdated": "",
      "operators": [
        {
          "name": "gad",
          "routes": [
            "17A"
          ]
        }
      ]
    },
    {
      "stopid": "1577",
      "displaystopid": "1577",
      "shortname": "",
      "shortnamelocalized": "",
      "fullname": "Abbottstown Road, Cappagh Road",
      "fullnamelocalized": "",
      "latitude": "53.389883",
      "longitude": "-6.315726",
      "lastupdated": "",
      "operators": [
        {
          "name": "gad",
          "routes": [
            "17A"
          ]
        }
      ]
    },
    {
      "stopid": "1578",
      "displaystopid": "1578",
      "shortname": "",
      "shortnamelocalized": "",
      "fullname": "Ratoath Drive, Cappagh Road",
      "fullnamelocalized": "",
      "latitude": "53.3904",
      "longitude": "-6.318058",
      "lastupdated": "",
      "operators": [
        {
          "name": "gad",
          "routes": [
            "17A"
          ]
        }
      ]
    },
    {
      "stopid": "1580",
      "displaystopid": "1580",
      "shortname": "",
      "shortnamelocalized": "",
      "fullname": "Cappagh Cross, Ballycoolin Road",
      "fullnamelocalized": "",
      "latitude": "53.397921",
      "longitude": "-6.334081",
      "lastupdated": "",
      "operators": [
        {
          "name": "gad",
          "routes": [
            "17A"
          ]
        }
      ]
    },
    {
      "stopid": "1581",
      "displaystopid": "1581",
      "shortname": "",
      "shortnamelocalized": "",
      "fullname": "Cappagh Cross, Ballycoolin Road",
      "fullnamelocalized": "",
      "latitude": "53.398057",
      "longitude": "-6.334019",
      "lastupdated": "",
      "operators": [
        {
          "name": "gad",
          "routes": [
            "17A"
          ]
        }
      ]
    },
    {
      "stopid": "1584",
      "displaystopid": "1584",
      "shortname": "",
      "shortnamelocalized": "",
      "fullname": "Abbottstown Road, Cappagh Road",
      "fullnamelocalized": "",
      "latitude": "53.389907",
      "longitude": "-6.315105",
      "lastupdated": "",
      "operators": [
        {
          "name": "gad",
          "routes": [
            "17A"
          ]
        }
      ]
    },
    {
      "stopid": "1816",
      "displaystopid": "1816",
      "shortname": "",
      "shortnamelocalized": "",
      "fullname": "Waterville Row, Snugborough Road",
      "fullnamelocalized": "",
      "latitude": "53.39309",
      "longitude": "-6.378366",
      "lastupdated": "",
      "operators": [
        {
          "name": "gad",
          "routes": [
            "17A"
          ]
        }
      ]
    },
    {
      "stopid": "1838",
      "displaystopid": "1838",
      "shortname": "",
      "shortnamelocalized": "",
      "fullname": "Skelligs Court, Snugborough Rd",
      "fullnamelocalized": "",
      "latitude": "53.39602",
      "longitude": "-6.373833",
      "lastupdated": "",
      "operators": [
        {
          "name": "gad",
          "routes": [
            "17A"
          ]
        }
      ]
    },
    {
      "stopid": "2007",
      "displaystopid": "2007",
      "shortname": "",
      "shortnamelocalized": "",
      "fullname": "UCD, Stillorgan Road",
      "fullnamelocalized": "",
      "latitude": "53.308839",
      "longitude": "-6.216075",
      "lastupdated": "",
      "operators": [
        {
          "name": "gad",
          "routes": [
            "175"
          ]
        }
      ]
    },
    {
      "stopid": "2008",
      "displaystopid": "2008",
      "shortname": "",
      "shortnamelocalized": "",
      "fullname": "Seafield Road, Stillorgan Road",
      "fullnamelocalized": "",
      "latitude": "53.305578",
      "longitude": "-6.211136",
      "lastupdated": "",
      "operators": [
        {
          "name": "gad",
          "routes": [
            "175"
          ]
        }
      ]
    },
    {
      "stopid": "2013",
      "displaystopid": "2013",
      "shortname": "",
      "shortnamelocalized": "",
      "fullname": "St. John of God\u0027s, Stillorgan Road",
      "fullnamelocalized": "",
      "latitude": "53.285304",
      "longitude": "-6.194437",
      "lastupdated": "",
      "operators": [
        {
          "name": "gad",
          "routes": [
            "75",
            "75A"
          ]
        }
      ]
    },
    {
      "stopid": "2014",
      "displaystopid": "2014",
      "shortname": "",
      "shortnamelocalized": "",
      "fullname": "Beechwood Court, Stillorgan Road",
      "fullnamelocalized": "",
      "latitude": "53.282111",
      "longitude": "-6.192895",
      "lastupdated": "",
      "operators": [
        {
          "name": "gad",
          "routes": [
            "75",
            "75A"
          ]
        }
      ]
    },
    {
      "stopid": "2015",
      "displaystopid": "2015",
      "shortname": "",
      "shortnamelocalized": "",
      "fullname": "Knocksinna, Stillorgan Road",
      "fullnamelocalized": "",
      "latitude": "53.275566",
      "longitude": "-6.179123",
      "lastupdated": "",
      "operators": [
        {
          "name": "gad",
          "routes": [
            "75",
            "75A"
          ]
        }
      ]
    },
    {
      "stopid": "2016",
      "displaystopid": "2016",
      "shortname": "",
      "shortnamelocalized": "",
      "fullname": "Newtownpark Ave, Stillorgan Road",
      "fullnamelocalized": "",
      "latitude": "53.278234",
      "longitude": "-6.184128",
      "lastupdated": "",
      "operators": [
        {
          "name": "gad",
          "routes": [
            "75",
            "75A"
          ]
        }
      ]
    },
    {
      "stopid": "2017",
      "displaystopid": "2017",
      "shortname": "",
      "shortnamelocalized": "",
      "fullname": "Foxrock Church, Stillorgan Road",
      "fullnamelocalized": "",
      "latitude": "53.27419",
      "longitude": "-6.175003",
      "lastupdated": "",
      "operators": [
        {
          "name": "gad",
          "routes": [
            "75",
            "75A"
          ]
        }
      ]
    },
    {
      "stopid": "2018",
      "displaystopid": "2018",
      "shortname": "",
      "shortnamelocalized": "",
      "fullname": "Foxrock Court, Kill Lane",
      "fullnamelocalized": "",
      "latitude": "53.274461",
      "longitude": "-6.172098",
      "lastupdated": "",
      "operators": [
        {
          "name": "gad",
          "routes": [
            "75",
            "75A"
          ]
        }
      ]
    },
    {
      "stopid": "2019",
      "displaystopid": "2019",
      "shortname": "",
      "shortnamelocalized": "",
      "fullname": "Foxrock Avenue, Kill Lane",
      "fullnamelocalized": "",
      "latitude": "53.275885",
      "longitude": "-6.169878",
      "lastupdated": "",
      "operators": [
        {
          "name": "gad",
          "routes": [
            "75",
            "75A"
          ]
        }
      ]
    },
    {
      "stopid": "2020",
      "displaystopid": "2020",
      "shortname": "",
      "shortnamelocalized": "",
      "fullname": "Foxrock Grove, Kill Lane",
      "fullnamelocalized": "",
      "latitude": "53.277055",
      "longitude": "-6.166508",
      "lastupdated": "",
      "operators": [
        {
          "name": "gad",
          "routes": [
            "75",
            "75A"
          ]
        }
      ]
    },
    {
      "stopid": "2021",
      "displaystopid": "2021",
      "shortname": "",
      "shortnamelocalized": "",
      "fullname": "Foxrock Close, Kill Lane",
      "fullnamelocalized": "",
      "latitude": "53.278174",
      "longitude": "-6.164411",
      "lastupdated": "",
      "operators": [
        {
          "name": "gad",
          "routes": [
            "75",
            "75A"
          ]
        }
      ]
    },
    {
      "stopid": "2022",
      "displaystopid": "2022",
      "shortname": "",
      "shortnamelocalized": "",
      "fullname": "Kill Abbey, Kill Lane",
      "fullnamelocalized": "",
      "latitude": "53.28006",
      "longitude": "-6.161568",
      "lastupdated": "",
      "operators": [
        {
          "name": "gad",
          "routes": [
            "75",
            "75A"
          ]
        }
      ]
    },
    {
      "stopid": "2023",
      "displaystopid": "2023",
      "shortname": "",
      "shortnamelocalized": "",
      "fullname": "Kill Lane, Abbey Rd",
      "fullnamelocalized": "",
      "latitude": "53.281518",
      "longitude": "-6.158419",
      "lastupdated": "",
      "operators": [
        {
          "name": "gad",
          "routes": [
            "63",
            "63A"
          ]
        }
      ]
    },
    {
      "stopid": "2024",
      "displaystopid": "2024",
      "shortname": "",
      "shortnamelocalized": "",
      "fullname": "Rory O\u0027Connor Park, Abbey Rd",
      "fullnamelocalized": "",
      "latitude": "53.283442",
      "longitude": "-6.159455",
      "lastupdated": "",
      "operators": [
        {
          "name": "gad",
          "routes": [
            "63",
            "63A"
          ]
        }
      ]
    },
    {
      "stopid": "2025",
      "displaystopid": "2025",
      "shortname": "",
      "shortnamelocalized": "",
      "fullname": "Abbey Park, Abbey Rd",
      "fullnamelocalized": "",
      "latitude": "53.284897",
      "longitude": "-6.160525",
      "lastupdated": "",
      "operators": [
        {
          "name": "gad",
          "routes": [
            "63",
            "63A"
          ]
        }
      ]
    },
    {
      "stopid": "2026",
      "displaystopid": "2026",
      "shortname": "",
      "shortnamelocalized": "",
      "fullname": "Stradbrook Rd, Monkstown Ave",
      "fullnamelocalized": "",
      "latitude": "53.286649",
      "longitude": "-6.159704",
      "lastupdated": "",
      "operators": [
        {
          "name": "gad",
          "routes": [
            "63",
            "63A"
          ]
        }
      ]
    },
    {
      "stopid": "2027",
      "displaystopid": "2027",
      "shortname": "",
      "shortnamelocalized": "",
      "fullname": "Monkstown Farm",
      "fullnamelocalized": "",
      "latitude": "53.28695917",
      "longitude": "-6.156847222",
      "lastupdated": "",
      "operators": [
        {
          "name": "gad",
          "routes": [
            "63",
            "63A"
          ]
        }
      ]
    },
    {
      "stopid": "2028",
      "displaystopid": "2028",
      "shortname": "",
      "shortnamelocalized": "",
      "fullname": "Monkstown Farm, Oliver Plunkett Ave",
      "fullnamelocalized": "",
      "latitude": "53.28532278",
      "longitude": "-6.153333056",
      "lastupdated": "",
      "operators": [
        {
          "name": "gad",
          "routes": [
            "63",
            "63A"
          ]
        }
      ]
    },
    {
      "stopid": "2029",
      "displaystopid": "2029",
      "shortname": "",
      "shortnamelocalized": "",
      "fullname": "Oliver Plunkett Rd, Oliver Plunkett Road",
      "fullnamelocalized": "",
      "latitude": "53.2838875",
      "longitude": "-6.149450278",
      "lastupdated": "",
      "operators": [
        {
          "name": "gad",
          "routes": [
            "63",
            "63A"
          ]
        }
      ]
    },
    {
      "stopid": "2030",
      "displaystopid": "2030",
      "shortname": "",
      "shortnamelocalized": "",
      "fullname": "Oliver Plunkett Rd, Oliver Plunkett Ct",
      "fullnamelocalized": "",
      "latitude": "53.2836775",
      "longitude": "-6.146939722",
      "lastupdated": "",
      "operators": [
        {
          "name": "gad",
          "routes": [
            "63",
            "63A"
          ]
        }
      ]
    },
    {
      "stopid": "2031",
      "displaystopid": "2031",
      "shortname": "",
      "shortnamelocalized": "",
      "fullname": "Mounttown Park, Mounttown Rd",
      "fullnamelocalized": "",
      "latitude": "53.286113",
      "longitude": "-6.145693",
      "lastupdated": "",
      "operators": [
        {
          "name": "gad",
          "routes": [
            "63",
            "63A",
            "75",
            "75A",
            "111"
          ]
        }
      ]
    },
    {
      "stopid": "2032",
      "displaystopid": "2032",
      "shortname": "",
      "shortnamelocalized": "",
      "fullname": "Kendal House, York Road",
      "fullnamelocalized": "",
      "latitude": "53.289486",
      "longitude": "-6.144775",
      "lastupdated": "",
      "operators": [
        {
          "name": "gad",
          "routes": [
            "63",
            "63A",
            "75",
            "75A",
            "111"
          ]
        }
      ]
    },
    {
      "stopid": "2033",
      "displaystopid": "2033",
      "shortname": "",
      "shortnamelocalized": "",
      "fullname": "Knapton Court, York Road",
      "fullnamelocalized": "",
      "latitude": "53.291476",
      "longitude": "-6.143383",
      "lastupdated": "",
      "operators": [
        {
          "name": "gad",
          "routes": [
            "63",
            "63A",
            "75",
            "75A",
            "111"
          ]
        }
      ]
    },
    {
      "stopid": "2034",
      "displaystopid": "2034",
      "shortname": "",
      "shortnamelocalized": "",
      "fullname": "Vesey Place, York Road",
      "fullnamelocalized": "",
      "latitude": "53.292682",
      "longitude": "-6.142763",
      "lastupdated": "",
      "operators": [
        {
          "name": "gad",
          "routes": [
            "63",
            "63A",
            "75",
            "75A",
            "111"
          ]
        }
      ]
    },
    {
      "stopid": "2035",
      "displaystopid": "2035",
      "shortname": "",
      "shortnamelocalized": "",
      "fullname": "Crofton House, Clarence Street",
      "fullnamelocalized": "",
      "latitude": "53.295772",
      "longitude": "-6.14266",
      "lastupdated": "",
      "operators": [
        {
          "name": "gad",
          "routes": [
            "63",
            "63A",
            "75",
            "75A",
            "111"
          ]
        }
      ]
    },
    {
      "stopid": "2036",
      "displaystopid": "2036",
      "shortname": "",
      "shortnamelocalized": "",
      "fullname": "Crofton Avenue, Crofton Road",
      "fullnamelocalized": "",
      "latitude": "53.295795",
      "longitude": "-6.138203",
      "lastupdated": "",
      "operators": [
        {
          "name": "gad",
          "routes": [
            "63",
            "63A",
            "75",
            "75A",
            "111"
          ]
        }
      ]
    },
    {
      "stopid": "2037",
      "displaystopid": "2037",
      "shortname": "",
      "shortnamelocalized": "",
      "fullname": "Marine Road, Dun Laoghaire Stn",
      "fullnamelocalized": "",
      "latitude": "53.29375583",
      "longitude": "-6.134396944",
      "lastupdated": "",
      "operators": [
        {
          "name": "gad",
          "routes": [
            "45A",
            "45B",
            "59",
            "111"
          ]
        }
      ]
    },
    {
      "stopid": "2039",
      "displaystopid": "2039",
      "shortname": "",
      "shortnamelocalized": "",
      "fullname": "Railway Station, Crofton Road",
      "fullnamelocalized": "",
      "latitude": "53.294679",
      "longitude": "-6.134434",
      "lastupdated": "",
      "operators": [
        {
          "name": "gad",
          "routes": [
            "63",
            "63A",
            "75",
            "75A",
            "111"
          ]
        }
      ]
    },
    {
      "stopid": "2040",
      "displaystopid": "2040",
      "shortname": "",
      "shortnamelocalized": "",
      "fullname": "George\u0027s Street, Marine Road",
      "fullnamelocalized": "",
      "latitude": "53.292742",
      "longitude": "-6.135484",
      "lastupdated": "",
      "operators": [
        {
          "name": "gad",
          "routes": [
            "45A",
            "45B",
            "63",
            "63A",
            "75",
            "75A"
          ]
        }
      ]
    },
    {
      "stopid": "2041",
      "displaystopid": "2041",
      "shortname": "",
      "shortnamelocalized": "",
      "fullname": "Bloomfield, George\u0027s St",
      "fullnamelocalized": "",
      "latitude": "53.293656",
      "longitude": "-6.139368",
      "lastupdated": "",
      "operators": [
        {
          "name": "gad",
          "routes": [
            "63",
            "63A",
            "75",
            "75A"
          ]
        }
      ]
    },
    {
      "stopid": "2042",
      "displaystopid": "2042",
      "shortname": "",
      "shortnamelocalized": "",
      "fullname": "Willow Bank, York Road",
      "fullnamelocalized": "",
      "latitude": "53.293653",
      "longitude": "-6.142651",
      "lastupdated": "",
      "operators": [
        {
          "name": "gad",
          "routes": [
            "63",
            "63A",
            "75",
            "75A",
            "111"
          ]
        }
      ]
    },
    {
      "stopid": "2043",
      "displaystopid": "2043",
      "shortname": "",
      "shortnamelocalized": "",
      "fullname": "St. Michael\u0027s Terrace, York Road",
      "fullnamelocalized": "",
      "latitude": "53.292523",
      "longitude": "-6.142681",
      "lastupdated": "",
      "operators": [
        {
          "name": "gad",
          "routes": [
            "63",
            "63A",
            "75",
            "75A",
            "111"
          ]
        }
      ]
    },
    {
      "stopid": "2044",
      "displaystopid": "2044",
      "shortname": "",
      "shortnamelocalized": "",
      "fullname": "Training Centre, York Road",
      "fullnamelocalized": "",
      "latitude": "53.290894",
      "longitude": "-6.143687",
      "lastupdated": "",
      "operators": [
        {
          "name": "gad",
          "routes": [
            "63",
            "63A",
            "75",
            "75A",
            "111"
          ]
        }
      ]
    },
    {
      "stopid": "2045",
      "displaystopid": "2045",
      "shortname": "",
      "shortnamelocalized": "",
      "fullname": "Mounttown Road, York Road",
      "fullnamelocalized": "",
      "latitude": "53.289083",
      "longitude": "-6.145035",
      "lastupdated": "",
      "operators": [
        {
          "name": "gad",
          "routes": [
            "63",
            "63A",
            "75",
            "75A",
            "111"
          ]
        }
      ]
    },
    {
      "stopid": "2046",
      "displaystopid": "2046",
      "shortname": "",
      "shortnamelocalized": "",
      "fullname": "Mounttown Park, Mounttown Rd",
      "fullnamelocalized": "",
      "latitude": "53.286026",
      "longitude": "-6.145594",
      "lastupdated": "",
      "operators": [
        {
          "name": "gad",
          "routes": [
            "63",
            "63A",
            "75",
            "75A",
            "111"
          ]
        }
      ]
    },
    {
      "stopid": "2047",
      "displaystopid": "2047",
      "shortname": "",
      "shortnamelocalized": "",
      "fullname": "Oliver Plunkett Rd, Oliver Plunkett Road",
      "fullnamelocalized": "",
      "latitude": "53.28363944",
      "longitude": "-6.147376111",
      "lastupdated": "",
      "operators": [
        {
          "name": "gad",
          "routes": [
            "63",
            "63A"
          ]
        }
      ]
    },
    {
      "stopid": "2048",
      "displaystopid": "2048",
      "shortname": "",
      "shortnamelocalized": "",
      "fullname": "Oliver Plunkett Rd, St Patrick\u0027s Cres",
      "fullnamelocalized": "",
      "latitude": "53.28403806",
      "longitude": "-6.150463611",
      "lastupdated": "",
      "operators": [
        {
          "name": "gad",
          "routes": [
            "63",
            "63A"
          ]
        }
      ]
    },
    {
      "stopid": "2049",
      "displaystopid": "2049",
      "shortname": "",
      "shortnamelocalized": "",
      "fullname": "Monkstown Farm, Oliver Plunkett Ave",
      "fullnamelocalized": "",
      "latitude": "53.28559778",
      "longitude": "-6.154251111",
      "lastupdated": "",
      "operators": [
        {
          "name": "gad",
          "routes": [
            "63",
            "63A"
          ]
        }
      ]
    },
    {
      "stopid": "2050",
      "displaystopid": "2050",
      "shortname": "",
      "shortnamelocalized": "",
      "fullname": "Monkstown Farm, Monkstown Avenue",
      "fullnamelocalized": "",
      "latitude": "53.2868425",
      "longitude": "-6.156867222",
      "lastupdated": "",
      "operators": [
        {
          "name": "gad",
          "routes": [
            "63",
            "63A"
          ]
        }
      ]
    },
    {
      "stopid": "2051",
      "displaystopid": "2051",
      "shortname": "",
      "shortnamelocalized": "",
      "fullname": "Stradbrook Rd, Monkstown Ave",
      "fullnamelocalized": "",
      "latitude": "53.286477",
      "longitude": "-6.159811",
      "lastupdated": "",
      "operators": [
        {
          "name": "gad",
          "routes": [
            "63",
            "63A"
          ]
        }
      ]
    },
    {
      "stopid": "2052",
      "displaystopid": "2052",
      "shortname": "",
      "shortnamelocalized": "",
      "fullname": "Roebuck Road, Fosters Avenue",
      "fullnamelocalized": "",
      "latitude": "53.299674",
      "longitude": "-6.218537",
      "lastupdated": "",
      "operators": [
        {
          "name": "gad",
          "routes": [
            "175"
          ]
        }
      ]
    },
    {
      "stopid": "2053",
      "displaystopid": "2053",
      "shortname": "",
      "shortnamelocalized": "",
      "fullname": "Abbey Park, Abbey Rd",
      "fullnamelocalized": "",
      "latitude": "53.284834",
      "longitude": "-6.160279",
      "lastupdated": "",
      "operators": [
        {
          "name": "gad",
          "routes": [
            "63",
            "63A"
          ]
        }
      ]
    },
    {
      "stopid": "2054",
      "displaystopid": "2054",
      "shortname": "",
      "shortnamelocalized": "",
      "fullname": "Rory O\u0027Connor Park, Abbey Rd",
      "fullnamelocalized": "",
      "latitude": "53.283232",
      "longitude": "-6.159191",
      "lastupdated": "",
      "operators": [
        {
          "name": "gad",
          "routes": [
            "63",
            "63A"
          ]
        }
      ]
    },
    {
      "stopid": "2055",
      "displaystopid": "2055",
      "shortname": "",
      "shortnamelocalized": "",
      "fullname": "Kill Lane, Abbey Rd",
      "fullnamelocalized": "",
      "latitude": "53.281502",
      "longitude": "-6.15817",
      "lastupdated": "",
      "operators": [
        {
          "name": "gad",
          "routes": [
            "63",
            "63A"
          ]
        }
      ]
    },
    {
      "stopid": "2056",
      "displaystopid": "2056",
      "shortname": "",
      "shortnamelocalized": "",
      "fullname": "Business Park, Kill Lane",
      "fullnamelocalized": "",
      "latitude": "53.279437",
      "longitude": "-6.162061",
      "lastupdated": "",
      "operators": [
        {
          "name": "gad",
          "routes": [
            "75",
            "75A"
          ]
        }
      ]
    },
    {
      "stopid": "2057",
      "displaystopid": "2057",
      "shortname": "",
      "shortnamelocalized": "",
      "fullname": "Clonkeen Drive, Kill Lane",
      "fullnamelocalized": "",
      "latitude": "53.277744",
      "longitude": "-6.164916",
      "lastupdated": "",
      "operators": [
        {
          "name": "gad",
          "routes": [
            "75",
            "75A"
          ]
        }
      ]
    },
    {
      "stopid": "2058",
      "displaystopid": "2058",
      "shortname": "",
      "shortnamelocalized": "",
      "fullname": "Beech Park Avenue, Kill Lane",
      "fullnamelocalized": "",
      "latitude": "53.276604",
      "longitude": "-6.167318",
      "lastupdated": "",
      "operators": [
        {
          "name": "gad",
          "routes": [
            "75",
            "75A"
          ]
        }
      ]
    },
    {
      "stopid": "2059",
      "displaystopid": "2059",
      "shortname": "",
      "shortnamelocalized": "",
      "fullname": "Beech Park Road, Kill Lane",
      "fullnamelocalized": "",
      "latitude": "53.275165",
      "longitude": "-6.170709",
      "lastupdated": "",
      "operators": [
        {
          "name": "gad",
          "routes": [
            "75",
            "75A"
          ]
        }
      ]
    },
    {
      "stopid": "2060",
      "displaystopid": "2060",
      "shortname": "",
      "shortnamelocalized": "",
      "fullname": "Springfield Park, Stillorgan Road",
      "fullnamelocalized": "",
      "latitude": "53.273977",
      "longitude": "-6.175233",
      "lastupdated": "",
      "operators": [
        {
          "name": "gad",
          "routes": [
            "75",
            "75A"
          ]
        }
      ]
    },
    {
      "stopid": "2061",
      "displaystopid": "2061",
      "shortname": "",
      "shortnamelocalized": "",
      "fullname": "Knocksinna, Stillorgan Road",
      "fullnamelocalized": "",
      "latitude": "53.275755",
      "longitude": "-6.180166",
      "lastupdated": "",
      "operators": [
        {
          "name": "gad",
          "routes": [
            "75",
            "75A"
          ]
        }
      ]
    },
    {
      "stopid": "2062",
      "displaystopid": "2062",
      "shortname": "",
      "shortnamelocalized": "",
      "fullname": "Rocwood, Stillorgan Road",
      "fullnamelocalized": "",
      "latitude": "53.279056",
      "longitude": "-6.186891",
      "lastupdated": "",
      "operators": [
        {
          "name": "gad",
          "routes": [
            "75",
            "75A"
          ]
        }
      ]
    },
    {
      "stopid": "2063",
      "displaystopid": "2063",
      "shortname": "",
      "shortnamelocalized": "",
      "fullname": "Galloping Green, Stillorgan Road",
      "fullnamelocalized": "",
      "latitude": "53.280313",
      "longitude": "-6.189998",
      "lastupdated": "",
      "operators": [
        {
          "name": "gad",
          "routes": [
            "75",
            "75A"
          ]
        }
      ]
    },
    {
      "stopid": "2064",
      "displaystopid": "2064",
      "shortname": "",
      "shortnamelocalized": "",
      "fullname": "Brewery Road, Stillorgan Road",
      "fullnamelocalized": "",
      "latitude": "53.282753",
      "longitude": "-6.193863",
      "lastupdated": "",
      "operators": [
        {
          "name": "gad",
          "routes": [
            "75",
            "75A"
          ]
        }
      ]
    },
    {
      "stopid": "2065",
      "displaystopid": "2065",
      "shortname": "",
      "shortnamelocalized": "",
      "fullname": "Merville Road, Stillorgan Road",
      "fullnamelocalized": "",
      "latitude": "53.284843",
      "longitude": "-6.194898",
      "lastupdated": "",
      "operators": [
        {
          "name": "gad",
          "routes": [
            "75",
            "75A"
          ]
        }
      ]
    },
    {
      "stopid": "2071",
      "displaystopid": "2071",
      "shortname": "",
      "shortnamelocalized": "",
      "fullname": "Stillorgan Road, Fosters Avenue",
      "fullnamelocalized": "",
      "latitude": "53.303045",
      "longitude": "-6.209939",
      "lastupdated": "",
      "operators": [
        {
          "name": "gad",
          "routes": [
            "175"
          ]
        }
      ]
    },
    {
      "stopid": "2072",
      "displaystopid": "2072",
      "shortname": "",
      "shortnamelocalized": "",
      "fullname": "North Avenue, Fosters Avenue",
      "fullnamelocalized": "",
      "latitude": "53.301893",
      "longitude": "-6.212738",
      "lastupdated": "",
      "operators": [
        {
          "name": "gad",
          "routes": [
            "175"
          ]
        }
      ]
    },
    {
      "stopid": "2082",
      "displaystopid": "2082",
      "shortname": "",
      "shortnamelocalized": "",
      "fullname": "North Avenue, Fosters Avenue",
      "fullnamelocalized": "",
      "latitude": "53.301959",
      "longitude": "-6.213002",
      "lastupdated": "",
      "operators": [
        {
          "name": "gad",
          "routes": [
            "175"
          ]
        }
      ]
    },
    {
      "stopid": "2083",
      "displaystopid": "2083",
      "shortname": "",
      "shortnamelocalized": "",
      "fullname": "Stillorgan Road, Fosters Avenue",
      "fullnamelocalized": "",
      "latitude": "53.303332",
      "longitude": "-6.209617",
      "lastupdated": "",
      "operators": [
        {
          "name": "gad",
          "routes": [
            "175"
          ]
        }
      ]
    },
    {
      "stopid": "2084",
      "displaystopid": "2084",
      "shortname": "",
      "shortnamelocalized": "",
      "fullname": "Seafield Road, Stillorgan Road",
      "fullnamelocalized": "",
      "latitude": "53.305549",
      "longitude": "-6.211626",
      "lastupdated": "",
      "operators": [
        {
          "name": "gad",
          "routes": [
            "175"
          ]
        }
      ]
    },
    {
      "stopid": "2113",
      "displaystopid": "2113",
      "shortname": "",
      "shortnamelocalized": "",
      "fullname": "St. Peter\u0027s Road, St Peter\u0027s Road",
      "fullnamelocalized": "",
      "latitude": "53.20958583",
      "longitude": "-6.118247778",
      "lastupdated": "",
      "operators": [
        {
          "name": "gad",
          "routes": [
            "185"
          ]
        }
      ]
    },
    {
      "stopid": "2290",
      "displaystopid": "2290",
      "shortname": "",
      "shortnamelocalized": "",
      "fullname": "Lakehurst, Waterville Terrace",
      "fullnamelocalized": "",
      "latitude": "53.391885",
      "longitude": "-6.37209",
      "lastupdated": "",
      "operators": [
        {
          "name": "gad",
          "routes": [
            "17A"
          ]
        }
      ]
    },
    {
      "stopid": "2294",
      "displaystopid": "2294",
      "shortname": "",
      "shortnamelocalized": "",
      "fullname": "Blanchardstown Hospital, Mill Road",
      "fullnamelocalized": "",
      "latitude": "53.389838",
      "longitude": "-6.370307",
      "lastupdated": "",
      "operators": [
        {
          "name": "gad",
          "routes": [
            "17A"
          ]
        }
      ]
    },
    {
      "stopid": "2338",
      "displaystopid": "2338",
      "shortname": "",
      "shortnamelocalized": "",
      "fullname": "Garnish Square, Snugborough Road",
      "fullnamelocalized": "",
      "latitude": "53.393082",
      "longitude": "-6.377972",
      "lastupdated": "",
      "operators": [
        {
          "name": "gad",
          "routes": [
            "17A"
          ]
        }
      ]
    },
    {
      "stopid": "2346",
      "displaystopid": "2346",
      "shortname": "",
      "shortnamelocalized": "",
      "fullname": "Belgard Square North, Belgard Road",
      "fullnamelocalized": "",
      "latitude": "53.290072",
      "longitude": "-6.367957",
      "lastupdated": "",
      "operators": [
        {
          "name": "gad",
          "routes": [
            "175"
          ]
        }
      ]
    },
    {
      "stopid": "2349",
      "displaystopid": "2349",
      "shortname": "",
      "shortnamelocalized": "",
      "fullname": "Alderwood, Old Blessington Rd",
      "fullnamelocalized": "",
      "latitude": "53.285027",
      "longitude": "-6.378527",
      "lastupdated": "",
      "operators": [
        {
          "name": "gad",
          "routes": [
            "175"
          ]
        }
      ]
    },
    {
      "stopid": "2351",
      "displaystopid": "2351",
      "shortname": "",
      "shortnamelocalized": "",
      "fullname": "Maplewood, Blessington Rd",
      "fullnamelocalized": "",
      "latitude": "53.283196",
      "longitude": "-6.384512",
      "lastupdated": "",
      "operators": [
        {
          "name": "gad",
          "routes": [
            "175"
          ]
        }
      ]
    },
    {
      "stopid": "2359",
      "displaystopid": "2359",
      "shortname": "",
      "shortnamelocalized": "",
      "fullname": "Maplewood Avenue, Blessington Rd",
      "fullnamelocalized": "",
      "latitude": "53.283601",
      "longitude": "-6.384344",
      "lastupdated": "",
      "operators": [
        {
          "name": "gad",
          "routes": [
            "175"
          ]
        }
      ]
    },
    {
      "stopid": "2360",
      "displaystopid": "2360",
      "shortname": "",
      "shortnamelocalized": "",
      "fullname": "Alderwood, Old Blessington Rd",
      "fullnamelocalized": "",
      "latitude": "53.284696",
      "longitude": "-6.379652",
      "lastupdated": "",
      "operators": [
        {
          "name": "gad",
          "routes": [
            "175"
          ]
        }
      ]
    },
    {
      "stopid": "2363",
      "displaystopid": "2363",
      "shortname": "",
      "shortnamelocalized": "",
      "fullname": "Belgard Road North, Belgard Road",
      "fullnamelocalized": "",
      "latitude": "53.2899",
      "longitude": "-6.368225",
      "lastupdated": "",
      "operators": [
        {
          "name": "gad",
          "routes": [
            "175"
          ]
        }
      ]
    },
    {
      "stopid": "2510",
      "displaystopid": "2510",
      "shortname": "",
      "shortnamelocalized": "",
      "fullname": "Industrial Estate, Ballycoolin Rd",
      "fullnamelocalized": "",
      "latitude": "53.402285",
      "longitude": "-6.355696",
      "lastupdated": "",
      "operators": [
        {
          "name": "gad",
          "routes": [
            "17A"
          ]
        }
      ]
    },
    {
      "stopid": "2515",
      "displaystopid": "2515",
      "shortname": "",
      "shortnamelocalized": "",
      "fullname": "Knocklyon Road, Firhouse Rd",
      "fullnamelocalized": "",
      "latitude": "53.29135",
      "longitude": "-6.312826",
      "lastupdated": "",
      "operators": [
        {
          "name": "gad",
          "routes": [
            "75",
            "75A"
          ]
        }
      ]
    },
    {
      "stopid": "2516",
      "displaystopid": "2516",
      "shortname": "",
      "shortnamelocalized": "",
      "fullname": "Cremore, Firhouse Rd",
      "fullnamelocalized": "",
      "latitude": "53.290241",
      "longitude": "-6.315472",
      "lastupdated": "",
      "operators": [
        {
          "name": "gad",
          "routes": [
            "75",
            "75A"
          ]
        }
      ]
    },
    {
      "stopid": "2517",
      "displaystopid": "2517",
      "shortname": "",
      "shortnamelocalized": "",
      "fullname": "St Enda\u0027s GAA Club, Firhouse Rd",
      "fullnamelocalized": "",
      "latitude": "53.289235",
      "longitude": "-6.318592",
      "lastupdated": "",
      "operators": [
        {
          "name": "gad",
          "routes": [
            "75",
            "75A"
          ]
        }
      ]
    },
    {
      "stopid": "2518",
      "displaystopid": "2518",
      "shortname": "",
      "shortnamelocalized": "",
      "fullname": "Knocklyon Avenue, Firhouse Rd",
      "fullnamelocalized": "",
      "latitude": "53.288601",
      "longitude": "-6.324343",
      "lastupdated": "",
      "operators": [
        {
          "name": "gad",
          "routes": [
            "75",
            "75A"
          ]
        }
      ]
    },
    {
      "stopid": "2520",
      "displaystopid": "2520",
      "shortname": "",
      "shortnamelocalized": "",
      "fullname": "Firhouse Rd, Ballycullen Road",
      "fullnamelocalized": "",
      "latitude": "53.28607778",
      "longitude": "-6.332656944",
      "lastupdated": "",
      "operators": [
        {
          "name": "gad",
          "routes": [
            "75",
            "75A"
          ]
        }
      ]
    },
    {
      "stopid": "2521",
      "displaystopid": "2521",
      "shortname": "",
      "shortnamelocalized": "",
      "fullname": "Firhouse Rd, Woodlawn Park",
      "fullnamelocalized": "",
      "latitude": "53.28471944",
      "longitude": "-6.335784444",
      "lastupdated": "",
      "operators": [
        {
          "name": "gad",
          "routes": [
            "75",
            "75A"
          ]
        }
      ]
    },
    {
      "stopid": "2522",
      "displaystopid": "2522",
      "shortname": "",
      "shortnamelocalized": "",
      "fullname": "Ballycullen Ave, Firhouse Rd",
      "fullnamelocalized": "",
      "latitude": "53.281398",
      "longitude": "-6.342369",
      "lastupdated": "",
      "operators": [
        {
          "name": "gad",
          "routes": [
            "75",
            "75A"
          ]
        }
      ]
    },
    {
      "stopid": "2523",
      "displaystopid": "2523",
      "shortname": "",
      "shortnamelocalized": "",
      "fullname": "Dodder Lawn, Firhouse Rd",
      "fullnamelocalized": "",
      "latitude": "53.277076",
      "longitude": "-6.34875",
      "lastupdated": "",
      "operators": [
        {
          "name": "gad",
          "routes": [
            "75",
            "75A"
          ]
        }
      ]
    },
    {
      "stopid": "2524",
      "displaystopid": "2524",
      "shortname": "",
      "shortnamelocalized": "",
      "fullname": "Ballycullen Drive, Firhouse Rd",
      "fullnamelocalized": "",
      "latitude": "53.278368",
      "longitude": "-6.346874",
      "lastupdated": "",
      "operators": [
        {
          "name": "gad",
          "routes": [
            "75",
            "75A"
          ]
        }
      ]
    },
    {
      "stopid": "253",
      "displaystopid": "253",
      "shortname": "",
      "shortnamelocalized": "",
      "fullname": "Main Entrance, Beaumont Hospital",
      "fullnamelocalized": "",
      "latitude": "53.389942",
      "longitude": "-6.224379",
      "lastupdated": "",
      "operators": [
        {
          "name": "gad",
          "routes": [
            "17A"
          ]
        }
      ]
    },
    {
      "stopid": "2532",
      "displaystopid": "2532",
      "shortname": "",
      "shortnamelocalized": "",
      "fullname": "Bohernabreena Road, Old Bawn Rd",
      "fullnamelocalized": "",
      "latitude": "53.275615",
      "longitude": "-6.354461",
      "lastupdated": "",
      "operators": [
        {
          "name": "gad",
          "routes": [
            "75",
            "75A",
            "175"
          ]
        }
      ]
    },
    {
      "stopid": "2533",
      "displaystopid": "2533",
      "shortname": "",
      "shortnamelocalized": "",
      "fullname": "Old Bawn Rd, Parkwood Lawn",
      "fullnamelocalized": "",
      "latitude": "53.27750833",
      "longitude": "-6.357643333",
      "lastupdated": "",
      "operators": [
        {
          "name": "gad",
          "routes": [
            "75",
            "75A",
            "175"
          ]
        }
      ]
    },
    {
      "stopid": "2534",
      "displaystopid": "2534",
      "shortname": "",
      "shortnamelocalized": "",
      "fullname": "Old Bawn Rd, Old Bawn Terrace",
      "fullnamelocalized": "",
      "latitude": "53.27892861",
      "longitude": "-6.358308611",
      "lastupdated": "",
      "operators": [
        {
          "name": "gad",
          "routes": [
            "75",
            "75A",
            "175"
          ]
        }
      ]
    },
    {
      "stopid": "2535",
      "displaystopid": "2535",
      "shortname": "",
      "shortnamelocalized": "",
      "fullname": "Seskin View Rd, Old Bawn Rd",
      "fullnamelocalized": "",
      "latitude": "53.280996",
      "longitude": "-6.358891",
      "lastupdated": "",
      "operators": [
        {
          "name": "gad",
          "routes": [
            "75",
            "75A",
            "175"
          ]
        }
      ]
    },
    {
      "stopid": "2536",
      "displaystopid": "2536",
      "shortname": "",
      "shortnamelocalized": "",
      "fullname": "Old Bawn Court, Old Bawn Rd",
      "fullnamelocalized": "",
      "latitude": "53.282947",
      "longitude": "-6.359565",
      "lastupdated": "",
      "operators": [
        {
          "name": "gad",
          "routes": [
            "75",
            "75A",
            "175"
          ]
        }
      ]
    },
    {
      "stopid": "2538",
      "displaystopid": "2538",
      "shortname": "",
      "shortnamelocalized": "",
      "fullname": "The Crescent, Old Bawn Rd",
      "fullnamelocalized": "",
      "latitude": "53.281497",
      "longitude": "-6.358939",
      "lastupdated": "",
      "operators": [
        {
          "name": "gad",
          "routes": [
            "75",
            "75A",
            "175"
          ]
        }
      ]
    },
    {
      "stopid": "2539",
      "displaystopid": "2539",
      "shortname": "",
      "shortnamelocalized": "",
      "fullname": "Kiltipper Road, Old Bawn Rd",
      "fullnamelocalized": "",
      "latitude": "53.276545",
      "longitude": "-6.356215",
      "lastupdated": "",
      "operators": [
        {
          "name": "gad",
          "routes": [
            "75",
            "75A",
            "175"
          ]
        }
      ]
    },
    {
      "stopid": "2540",
      "displaystopid": "2540",
      "shortname": "",
      "shortnamelocalized": "",
      "fullname": "Kiltipper Road, Old Bawn Rd",
      "fullnamelocalized": "",
      "latitude": "53.275519",
      "longitude": "-6.353808",
      "lastupdated": "",
      "operators": [
        {
          "name": "gad",
          "routes": [
            "75",
            "75A",
            "175"
          ]
        }
      ]
    },
    {
      "stopid": "2542",
      "displaystopid": "2542",
      "shortname": "",
      "shortnamelocalized": "",
      "fullname": "Glencarrig Court, Firhouse Rd",
      "fullnamelocalized": "",
      "latitude": "53.276753",
      "longitude": "-6.350068",
      "lastupdated": "",
      "operators": [
        {
          "name": "gad",
          "routes": [
            "75",
            "75A"
          ]
        }
      ]
    },
    {
      "stopid": "2544",
      "displaystopid": "2544",
      "shortname": "",
      "shortnamelocalized": "",
      "fullname": "Firhouse Rd, Woodlawn",
      "fullnamelocalized": "",
      "latitude": "53.28487278",
      "longitude": "-6.335823333",
      "lastupdated": "",
      "operators": [
        {
          "name": "gad",
          "routes": [
            "75",
            "75A"
          ]
        }
      ]
    },
    {
      "stopid": "2545",
      "displaystopid": "2545",
      "shortname": "",
      "shortnamelocalized": "",
      "fullname": "Firhouse Rd, Monalea Wood",
      "fullnamelocalized": "",
      "latitude": "53.28625722",
      "longitude": "-6.332635",
      "lastupdated": "",
      "operators": [
        {
          "name": "gad",
          "routes": [
            "75",
            "75A"
          ]
        }
      ]
    },
    {
      "stopid": "2547",
      "displaystopid": "2547",
      "shortname": "",
      "shortnamelocalized": "",
      "fullname": "Knocklyon Avenue, Firhouse Rd",
      "fullnamelocalized": "",
      "latitude": "53.289049",
      "longitude": "-6.323535",
      "lastupdated": "",
      "operators": [
        {
          "name": "gad",
          "routes": [
            "75",
            "75A"
          ]
        }
      ]
    },
    {
      "stopid": "2548",
      "displaystopid": "2548",
      "shortname": "",
      "shortnamelocalized": "",
      "fullname": "Ballyboden, Firhouse Rd",
      "fullnamelocalized": "",
      "latitude": "53.28944",
      "longitude": "-6.317944",
      "lastupdated": "",
      "operators": [
        {
          "name": "gad",
          "routes": [
            "75",
            "75A"
          ]
        }
      ]
    },
    {
      "stopid": "2557",
      "displaystopid": "2557",
      "shortname": "",
      "shortnamelocalized": "",
      "fullname": "Old Bawn Road, Tallaght Village",
      "fullnamelocalized": "",
      "latitude": "53.288501",
      "longitude": "-6.363275",
      "lastupdated": "",
      "operators": [
        {
          "name": "gad",
          "routes": [
            "75",
            "75A",
            "175"
          ]
        }
      ]
    },
    {
      "stopid": "2604",
      "displaystopid": "2604",
      "shortname": "",
      "shortnamelocalized": "",
      "fullname": "Tallaght By-Pass, Old Bawn Rd",
      "fullnamelocalized": "",
      "latitude": "53.286803",
      "longitude": "-6.36179",
      "lastupdated": "",
      "operators": [
        {
          "name": "gad",
          "routes": [
            "75",
            "75A",
            "175"
          ]
        }
      ]
    },
    {
      "stopid": "2605",
      "displaystopid": "2605",
      "shortname": "",
      "shortnamelocalized": "",
      "fullname": "Watergate, Old Bawn Rd",
      "fullnamelocalized": "",
      "latitude": "53.284122",
      "longitude": "-6.359952",
      "lastupdated": "",
      "operators": [
        {
          "name": "gad",
          "routes": [
            "75",
            "75A",
            "175"
          ]
        }
      ]
    },
    {
      "stopid": "2616",
      "displaystopid": "2616",
      "shortname": "",
      "shortnamelocalized": "",
      "fullname": "St. Maelruan\u0027s Park, Old Bawn Rd",
      "fullnamelocalized": "",
      "latitude": "53.284662",
      "longitude": "-6.360649",
      "lastupdated": "",
      "operators": [
        {
          "name": "gad",
          "routes": [
            "75",
            "75A",
            "175"
          ]
        }
      ]
    },
    {
      "stopid": "2617",
      "displaystopid": "2617",
      "shortname": "",
      "shortnamelocalized": "",
      "fullname": "Tallaght Community Arts, Tallaght Village",
      "fullnamelocalized": "",
      "latitude": "53.286706",
      "longitude": "-6.362057",
      "lastupdated": "",
      "operators": [
        {
          "name": "gad",
          "routes": [
            "75",
            "75A",
            "175"
          ]
        }
      ]
    },
    {
      "stopid": "2621",
      "displaystopid": "2621",
      "shortname": "",
      "shortnamelocalized": "",
      "fullname": "Blessington Road, Cookstown Rd",
      "fullnamelocalized": "",
      "latitude": "53.282167",
      "longitude": "-6.389548",
      "lastupdated": "",
      "operators": [
        {
          "name": "gad",
          "routes": [
            "175"
          ]
        }
      ]
    },
    {
      "stopid": "2631",
      "displaystopid": "2631",
      "shortname": "",
      "shortnamelocalized": "",
      "fullname": "Blessington Road, Cheeverstown Rd",
      "fullnamelocalized": "",
      "latitude": "53.282229",
      "longitude": "-6.388965",
      "lastupdated": "",
      "operators": [
        {
          "name": "gad",
          "routes": [
            "175"
          ]
        }
      ]
    },
    {
      "stopid": "2669",
      "displaystopid": "2669",
      "shortname": "",
      "shortnamelocalized": "",
      "fullname": "Swiftbrook, Fortunestown Way",
      "fullnamelocalized": "",
      "latitude": "53.285025",
      "longitude": "-6.406233",
      "lastupdated": "",
      "operators": [
        {
          "name": "gad",
          "routes": [
            "175"
          ]
        }
      ]
    },
    {
      "stopid": "2825",
      "displaystopid": "2825",
      "shortname": "",
      "shortnamelocalized": "",
      "fullname": "Luas Dundrum, Dundrum Road",
      "fullnamelocalized": "",
      "latitude": "53.29248",
      "longitude": "-6.245697",
      "lastupdated": "",
      "operators": [
        {
          "name": "gad",
          "routes": [
            "75",
            "75A",
            "175"
          ]
        }
      ]
    },
    {
      "stopid": "2826",
      "displaystopid": "2826",
      "shortname": "",
      "shortnamelocalized": "",
      "fullname": "Ballinteer Road, Dundrum",
      "fullnamelocalized": "",
      "latitude": "53.289522",
      "longitude": "-6.243567",
      "lastupdated": "",
      "operators": [
        {
          "name": "gad",
          "routes": [
            "75",
            "75A",
            "175"
          ]
        }
      ]
    },
    {
      "stopid": "2827",
      "displaystopid": "2827",
      "shortname": "",
      "shortnamelocalized": "",
      "fullname": "Citizen Advice Centre, Sandyford Rd",
      "fullnamelocalized": "",
      "latitude": "53.288037",
      "longitude": "-6.24123",
      "lastupdated": "",
      "operators": [
        {
          "name": "gad",
          "routes": [
            "175"
          ]
        }
      ]
    },
    {
      "stopid": "2828",
      "displaystopid": "2828",
      "shortname": "",
      "shortnamelocalized": "",
      "fullname": "Riversdale, Sandyford Rd",
      "fullnamelocalized": "",
      "latitude": "53.286177",
      "longitude": "-6.238719",
      "lastupdated": "",
      "operators": [
        {
          "name": "gad",
          "routes": [
            "175"
          ]
        }
      ]
    },
    {
      "stopid": "2841",
      "displaystopid": "2841",
      "shortname": "",
      "shortnamelocalized": "",
      "fullname": "Dundrum Town Centre, Sandyford Rd",
      "fullnamelocalized": "",
      "latitude": "53.287177",
      "longitude": "-6.240096",
      "lastupdated": "",
      "operators": [
        {
          "name": "gad",
          "routes": [
            "175"
          ]
        }
      ]
    },
    {
      "stopid": "2842",
      "displaystopid": "2842",
      "shortname": "",
      "shortnamelocalized": "",
      "fullname": "Castle View, Ballinteer Rd",
      "fullnamelocalized": "",
      "latitude": "53.287865",
      "longitude": "-6.246357",
      "lastupdated": "",
      "operators": [
        {
          "name": "gad",
          "routes": [
            "75",
            "75A"
          ]
        }
      ]
    },
    {
      "stopid": "2843",
      "displaystopid": "2843",
      "shortname": "",
      "shortnamelocalized": "",
      "fullname": "Lynwood, Ballinteer Rd",
      "fullnamelocalized": "",
      "latitude": "53.284265",
      "longitude": "-6.245606",
      "lastupdated": "",
      "operators": [
        {
          "name": "gad",
          "routes": [
            "75",
            "75A"
          ]
        }
      ]
    },
    {
      "stopid": "2844",
      "displaystopid": "2844",
      "shortname": "",
      "shortnamelocalized": "",
      "fullname": "Ashlawn, Ballinteer Rd",
      "fullnamelocalized": "",
      "latitude": "53.282645",
      "longitude": "-6.2449",
      "lastupdated": "",
      "operators": [
        {
          "name": "gad",
          "routes": [
            "75",
            "75A"
          ]
        }
      ]
    },
    {
      "stopid": "2845",
      "displaystopid": "2845",
      "shortname": "",
      "shortnamelocalized": "",
      "fullname": "Mayfield Terrace, Wyckham Way",
      "fullnamelocalized": "",
      "latitude": "53.279505",
      "longitude": "-6.244629",
      "lastupdated": "",
      "operators": [
        {
          "name": "gad",
          "routes": [
            "75",
            "75A",
            "175"
          ]
        }
      ]
    },
    {
      "stopid": "2846",
      "displaystopid": "2846",
      "shortname": "",
      "shortnamelocalized": "",
      "fullname": "Ballinteer Park, Ballinteer Ave",
      "fullnamelocalized": "",
      "latitude": "53.277238",
      "longitude": "-6.247957",
      "lastupdated": "",
      "operators": [
        {
          "name": "gad",
          "routes": [
            "75",
            "75A",
            "175"
          ]
        }
      ]
    },
    {
      "stopid": "2847",
      "displaystopid": "2847",
      "shortname": "",
      "shortnamelocalized": "",
      "fullname": "Ballinteer Court, Ballinteer Ave",
      "fullnamelocalized": "",
      "latitude": "53.276257",
      "longitude": "-6.249878",
      "lastupdated": "",
      "operators": [
        {
          "name": "gad",
          "routes": [
            "75",
            "75A",
            "175"
          ]
        }
      ]
    },
    {
      "stopid": "2848",
      "displaystopid": "2848",
      "shortname": "",
      "shortnamelocalized": "",
      "fullname": "Broadford Rise, Broadford Rd",
      "fullnamelocalized": "",
      "latitude": "53.275395",
      "longitude": "-6.255459",
      "lastupdated": "",
      "operators": [
        {
          "name": "gad",
          "routes": [
            "75",
            "75A"
          ]
        }
      ]
    },
    {
      "stopid": "2849",
      "displaystopid": "2849",
      "shortname": "",
      "shortnamelocalized": "",
      "fullname": "Broadford Park, Broadford Rd",
      "fullnamelocalized": "",
      "latitude": "53.277426",
      "longitude": "-6.255115",
      "lastupdated": "",
      "operators": [
        {
          "name": "gad",
          "routes": [
            "75",
            "75A"
          ]
        }
      ]
    },
    {
      "stopid": "2850",
      "displaystopid": "2850",
      "shortname": "",
      "shortnamelocalized": "",
      "fullname": "Broadford Drive, Broadford Rd",
      "fullnamelocalized": "",
      "latitude": "53.279703",
      "longitude": "-6.255561",
      "lastupdated": "",
      "operators": [
        {
          "name": "gad",
          "routes": [
            "75",
            "75A"
          ]
        }
      ]
    },
    {
      "stopid": "2851",
      "displaystopid": "2851",
      "shortname": "",
      "shortnamelocalized": "",
      "fullname": "Broadford Walk, Broadford Rd",
      "fullnamelocalized": "",
      "latitude": "53.280693",
      "longitude": "-6.258219",
      "lastupdated": "",
      "operators": [
        {
          "name": "gad",
          "routes": [
            "75",
            "75A"
          ]
        }
      ]
    },
    {
      "stopid": "2852",
      "displaystopid": "2852",
      "shortname": "",
      "shortnamelocalized": "",
      "fullname": "Stone Masons Way, Broadford Rd",
      "fullnamelocalized": "",
      "latitude": "53.280678",
      "longitude": "-6.260941",
      "lastupdated": "",
      "operators": [
        {
          "name": "gad",
          "routes": [
            "75",
            "75A"
          ]
        }
      ]
    },
    {
      "stopid": "2853",
      "displaystopid": "2853",
      "shortname": "",
      "shortnamelocalized": "",
      "fullname": "Stone Masons Way, Broadford Rd",
      "fullnamelocalized": "",
      "latitude": "53.280838",
      "longitude": "-6.260687",
      "lastupdated": "",
      "operators": [
        {
          "name": "gad",
          "routes": [
            "75",
            "75A"
          ]
        }
      ]
    },
    {
      "stopid": "2854",
      "displaystopid": "2854",
      "shortname": "",
      "shortnamelocalized": "",
      "fullname": "Broadford Walk, Broadford Rd",
      "fullnamelocalized": "",
      "latitude": "53.280715",
      "longitude": "-6.257242",
      "lastupdated": "",
      "operators": [
        {
          "name": "gad",
          "routes": [
            "75",
            "75A"
          ]
        }
      ]
    },
    {
      "stopid": "2855",
      "displaystopid": "2855",
      "shortname": "",
      "shortnamelocalized": "",
      "fullname": "Chestnut Grove, Broadford Rd",
      "fullnamelocalized": "",
      "latitude": "53.279208",
      "longitude": "-6.255116",
      "lastupdated": "",
      "operators": [
        {
          "name": "gad",
          "routes": [
            "75",
            "75A"
          ]
        }
      ]
    },
    {
      "stopid": "2856",
      "displaystopid": "2856",
      "shortname": "",
      "shortnamelocalized": "",
      "fullname": "Broadford Lawn, Broadford Rd",
      "fullnamelocalized": "",
      "latitude": "53.277162",
      "longitude": "-6.254977",
      "lastupdated": "",
      "operators": [
        {
          "name": "gad",
          "routes": [
            "75",
            "75A"
          ]
        }
      ]
    },
    {
      "stopid": "2857",
      "displaystopid": "2857",
      "shortname": "",
      "shortnamelocalized": "",
      "fullname": "Ballinteer Drive, Broadford Rd",
      "fullnamelocalized": "",
      "latitude": "53.274752",
      "longitude": "-6.255408",
      "lastupdated": "",
      "operators": [
        {
          "name": "gad",
          "routes": [
            "75",
            "75A"
          ]
        }
      ]
    },
    {
      "stopid": "2858",
      "displaystopid": "2858",
      "shortname": "",
      "shortnamelocalized": "",
      "fullname": "Ballintyre Woods, Ballinteer Ave",
      "fullnamelocalized": "",
      "latitude": "53.27518",
      "longitude": "-6.252415",
      "lastupdated": "",
      "operators": [
        {
          "name": "gad",
          "routes": [
            "75",
            "75A",
            "175"
          ]
        }
      ]
    },
    {
      "stopid": "2859",
      "displaystopid": "2859",
      "shortname": "",
      "shortnamelocalized": "",
      "fullname": "Ballinteer Park, Ballinteer Ave",
      "fullnamelocalized": "",
      "latitude": "53.27701",
      "longitude": "-6.248594",
      "lastupdated": "",
      "operators": [
        {
          "name": "gad",
          "routes": [
            "75",
            "75A",
            "175"
          ]
        }
      ]
    },
    {
      "stopid": "2860",
      "displaystopid": "2860",
      "shortname": "",
      "shortnamelocalized": "",
      "fullname": "Mayfield Terrace, Ballinteer Ave",
      "fullnamelocalized": "",
      "latitude": "53.278149",
      "longitude": "-6.246149",
      "lastupdated": "",
      "operators": [
        {
          "name": "gad",
          "routes": [
            "75",
            "75A",
            "175"
          ]
        }
      ]
    },
    {
      "stopid": "2861",
      "displaystopid": "2861",
      "shortname": "",
      "shortnamelocalized": "",
      "fullname": "Wesley College, Wyckham Way",
      "fullnamelocalized": "",
      "latitude": "53.279575",
      "longitude": "-6.244877",
      "lastupdated": "",
      "operators": [
        {
          "name": "gad",
          "routes": [
            "75",
            "75A",
            "175"
          ]
        }
      ]
    },
    {
      "stopid": "2862",
      "displaystopid": "2862",
      "shortname": "",
      "shortnamelocalized": "",
      "fullname": "Wickham Way, Ballinteer Rd",
      "fullnamelocalized": "",
      "latitude": "53.282881",
      "longitude": "-6.245123",
      "lastupdated": "",
      "operators": [
        {
          "name": "gad",
          "routes": [
            "75",
            "75A"
          ]
        }
      ]
    },
    {
      "stopid": "2863",
      "displaystopid": "2863",
      "shortname": "",
      "shortnamelocalized": "",
      "fullname": "Wyckham Park Road, Ballinteer Rd",
      "fullnamelocalized": "",
      "latitude": "53.283347",
      "longitude": "-6.245456",
      "lastupdated": "",
      "operators": [
        {
          "name": "gad",
          "routes": [
            "75",
            "75A"
          ]
        }
      ]
    },
    {
      "stopid": "2864",
      "displaystopid": "2864",
      "shortname": "",
      "shortnamelocalized": "",
      "fullname": "Castlebrook, Ballinteer Rd",
      "fullnamelocalized": "",
      "latitude": "53.286108",
      "longitude": "-6.246141",
      "lastupdated": "",
      "operators": [
        {
          "name": "gad",
          "routes": [
            "75",
            "75A"
          ]
        }
      ]
    },
    {
      "stopid": "2865",
      "displaystopid": "2865",
      "shortname": "",
      "shortnamelocalized": "",
      "fullname": "Holy Cross Church, Dundrum",
      "fullnamelocalized": "",
      "latitude": "53.289697",
      "longitude": "-6.244046",
      "lastupdated": "",
      "operators": [
        {
          "name": "gad",
          "routes": [
            "75",
            "75A",
            "175"
          ]
        }
      ]
    },
    {
      "stopid": "2866",
      "displaystopid": "2866",
      "shortname": "",
      "shortnamelocalized": "",
      "fullname": "Shopping Centre, Dundrum",
      "fullnamelocalized": "",
      "latitude": "53.29152",
      "longitude": "-6.245719",
      "lastupdated": "",
      "operators": [
        {
          "name": "gad",
          "routes": [
            "75",
            "75A",
            "175"
          ]
        }
      ]
    },
    {
      "stopid": "2872",
      "displaystopid": "2872",
      "shortname": "",
      "shortnamelocalized": "",
      "fullname": "Kilmacud Rd, Overend Way",
      "fullnamelocalized": "",
      "latitude": "53.28919194",
      "longitude": "-6.233701389",
      "lastupdated": "",
      "operators": [
        {
          "name": "gad",
          "routes": [
            "75",
            "75A"
          ]
        }
      ]
    },
    {
      "stopid": "2873",
      "displaystopid": "2873",
      "shortname": "",
      "shortnamelocalized": "",
      "fullname": "Kilmacud Rd, Knocknashee",
      "fullnamelocalized": "",
      "latitude": "53.28830528",
      "longitude": "-6.230888056",
      "lastupdated": "",
      "operators": [
        {
          "name": "gad",
          "routes": [
            "75",
            "75A"
          ]
        }
      ]
    },
    {
      "stopid": "2874",
      "displaystopid": "2874",
      "shortname": "",
      "shortnamelocalized": "",
      "fullname": "Kilmacud Rd, Eden Park Avenue",
      "fullnamelocalized": "",
      "latitude": "53.28715667",
      "longitude": "-6.227380833",
      "lastupdated": "",
      "operators": [
        {
          "name": "gad",
          "routes": [
            "75",
            "75A"
          ]
        }
      ]
    },